[{
		"type": "Feature",
		"properties": {
			"name": "Вікторія Гайбонюк, Анастасія Онопрійчук, Юрій Кульчинський",
			"city": "Рівне",
			"show_on_map": true
		},
		"geometry": {
			"type": "Point",
			"coordinates": [26.251617, 50.619900]
		}
	}, {
		"type": "Feature",
		"properties": {
			"name": "Галина Герасим, Надія Михалевич, Мар’яна Мазурак",
			"city": "Львів",
			"show_on_map": true
		},
		"geometry": {
			"type": "Point",
			"coordinates": [24.029717, 49.839683]
		}
	}, {
		"type": "Feature",
		"properties": {
			"name": "Яна Машкова",
			"city": "Корсунь-Шевченківський",
			"show_on_map": true
		},
		"geometry": {
			"type": "Point",
			"coordinates": [31.261853, 49.426112]
		}
	}, {
		"type": "Feature",
		"properties": {
			"name": "Олеся Малюванчук",
			"city": "Івано-Франківськ",
			"show_on_map": true
		},
		"geometry": {
			"type": "Point",
			"coordinates": [24.711117, 48.922633]
		}
	},
	{
		"type": "Feature",
		"properties": {
			"name": "Софія Кочмар",
			"city": "Бузьк",
			"show_on_map": true
		},
		"geometry": {
			"type": "Point",
			"coordinates": [24.609461, 49.969359]
		}
	},
	{
		"type": "Feature",
		"properties": {
			"name": "Вікторія Ільченко",
			"city": "Випасне",
			"show_on_map": true
		},
		"geometry": {
			"type": "Point",
			"coordinates": [30.266619, 46.196812]
		}
	},
	{
		"type": "Feature",
		"properties": {
			"name": "Ігор Фещенко",
			"city": "Сміла",
			"show_on_map": true
		},
		"geometry": {
			"type": "Point",
			"coordinates": [31.852233, 49.227717]
		}

	},
	{
		"type": "Feature",
		"properties": {
			"name": "Марта Дацюк",
			"city": "Сокаль",
			"show_on_map": true
		},
		"geometry": {
			"type": "Point",
			"coordinates": [24.280156, 50.486354]
		}

	},
	{
		"type": "Feature",
		"properties": {
			"name": "Богдана Рущак",
			"city": "Буштино",
			"show_on_map": true
		},
		"geometry": {
			"type": "Point",
			"coordinates": [23.482774, 48.049668]
		}
	},
	{
		"type": "Feature",
		"properties": {
			"name": "Анна Казак",
			"city": "Запоріжжя",
			"show_on_map": true
		},
		"geometry": {
			"type": "Point",
			"coordinates": [35.139567, 47.838800]
		}
	}
]
